{
    "type": "FeatureCollection",
    "crs": {
        "type": "name",
        "properties": {
            "name": "urn:ogc:def:crs:OGC:1.3:CRS84"
        }
    },
    "features": [
        { "type": "Feature", "id": "1", "properties": { "Name": "Nouilles de Lan Zhou", "Address": "1006 St Laurent Blvd", "City": "Montreal", "Country": "Canada", "Latitude": "45.50852", "Longitude": "-73.55967"}, "geometry": { "type": "Point", "coordinates": [ -73.55967, 45.50852 ] }},
        { "type": "Feature", "id": "2", "properties": { "Name": "The Dumpling Hut", "Address": "3591 Clark St", "City": "Montreal", "Country": "Canada", "Latitude": "45.51372", "Longitude": "-73.57246" }, "geometry": { "type": "Point", "coordinates": [ -73.57246, 45.51372 ] }},
        { "type": "Feature", "id": "3", "properties": { "Name": "Arepera", "Address": "73 Rue Prince-Arthur E", "City": "Montreal", "Country": "Canada", "Latitude": "45.51511", "Longitude": "-73.57184" }, "geometry": { "type": "Point", "coordinates": [ -73.57184, 45.51511 ] }},
        { "type": "Feature", "id": "4", "properties": { "Name": "Trip de Bouffe", "Address": "277 Mont-Royal Ave E", "City": "Montreal", "Country": "Canada", "Latitude": "45.52290", "Longitude": "-73.58429" }, "geometry": { "type": "Point", "coordinates": [ -73.58429, 45.52290 ] }},
        { "type": "Feature", "id": "5", "properties": { "Name": "Kahwa Cafe", "Address": "331 Mont-Royal Ave E", "City": "Montreal", "Country": "Canada", "Latitude": "45.52337", "Longitude": "-73.58360" }, "geometry": { "type": "Point", "coordinates": [ -73.58360, 45.52337 ] }},
        { "type": "Feature", "id": "6", "properties": { "Name": "Hof Kelsten", "Address": "4524 St Laurent Blvd", "City": "Montreal", "Country": "Canada", "Latitude": "45.52098", "Longitude": "-73.58679" }, "geometry": { "type": "Point", "coordinates": [ -73.58679, 45.52098 ] }},
        { "type": "Feature", "id": "7", "properties": { "Name": "O Petit Paris", "Address": "1592 Mont-Royal Ave E", "City": "Montreal", "Country": "Canada", "Latitude": "45.53246", "Longitude": "-73.57525" }, "geometry": { "type": "Point", "coordinates": [ -73.57525, 45.53246 ] }},
        { "type": "Feature", "id": "8", "properties": { "Name": "TESFA", "Address": "4520 Av. Papineau", "City": "Montreal", "Country": "Canada", "Latitude": "45.53327", "Longitude": "-73.57518" }, "geometry": { "type": "Point", "coordinates": [ -73.57518, 45.53327 ] }},
        { "type": "Feature", "id": "9", "properties": { "Name": "Kem Coba", "Address": "60 Av. Fairmount O", "City": "Montreal", "Country": "Canada", "Latitude": "45.52327", "Longitude": "-73.59518" }, "geometry": { "type": "Point", "coordinates": [ -73.59518, 45.52327 ] }},
        { "type": "Feature", "id": "10", "properties": { "Name": "Drogheria Fine", "Address": "68 Av. Fairmount O", "City": "Montreal", "Country": "Canada", "Latitude": "45.52304", "Longitude": "-73.59512"}, "geometry": { "type": "Point", "coordinates": [ -73.59512, 45.52304 ] }},
        { "type": "Feature", "id": "11", "properties": { "Name": "Fairmount Bagel", "Address": "74 Av. Fairmount O", "City": "Montreal", "Country": "Canada", "Latitude": "45.52290", "Longitude": "-73.59518"}, "geometry": { "type": "Point", "coordinates": [ -73.59518, 45.52290 ] }},
        { "type": "Feature", "id": "12", "properties": { "Name": "St-Viateur Bagel", "Address": "158 Rue Saint-Viateur O", "City": "Montreal", "Country": "Canada", "Latitude": "45.52383", "Longitude": "-73.60032" }, "geometry": { "type": "Point", "coordinates": [ -73.60032, 45.52383 ] }},
        { "type": "Feature", "id": "13", "properties": { "Name": "Pizza Bouquet", "Address": "45 Rue Beaubien E", "City": "Montreal", "Country": "Canada", "Latitude": "45.53128", "Longitude": "-73.60783" }, "geometry": { "type": "Point", "coordinates": [ -73.60783, 45.53128 ] }},
        { "type": "Feature", "id": "14", "properties": { "Name": "Ã‰picerie Pumpui", "Address": "83 Rue Saint-Zotique", "City": "Montreal", "Country": "Canada", "Latitude": "45.53348", "Longitude": "-73.61130" }, "geometry": { "type": "Point", "coordinates": [ -73.61130, 45.53348 ] }}
    ]
}