{
    "type": "FeatureCollection",
    "crs": {
        "type": "name",
        "properties": {
            "name": "urn:ogc:def:crs:OGC:1.3:CRS84"
        }
    },
    "features": [
        { "type": "Feature", "id": "1", "properties": { "Name": "Cafe In Gamba Saint-Viateur", "Address": "71 St Viateur St E", "City": "Montreal", "Country": "Canada", "Latitude": "45.5270488", "Longitude": "-73.598183" }, "geometry": { "type": "Point", "coordinates": [ -73.598183, 45.5270488 ] }},
        { "type": "Feature", "id": "2", "properties": { "Name": "Cafe Aunja", "Address": "1448 Sherbrooke St W", "City": "Montreal", "Country": "Canada", "Latitude": "45.49816", "Longitude": "-73.58055" }, "geometry": { "type": "Point", "coordinates": [ -73.58055, 45.49816 ] }},
        { "type": "Feature", "id": "3", "properties": { "Name": "Le Club Cafe", "Address": "3801 Saint Denis St", "City": "Montreal", "Country": "Canada", "Latitude": "45.51948", "Longitude": "-73.527257" }, "geometry": { "type": "Point", "coordinates": [ -73.57257, 45.51948 ] }},
        { "type": "Feature", "id": "4", "properties": { "Name": "Cafe Olimpico", "Address": "124 St Viateur St W", "City": "Montreal", "Country": "Canada", "Latitude": "45.52414", "Longitude": "-73.60026" }, "geometry": { "type": "Point", "coordinates": [ -73.60026, 45.52414 ] }},
        { "type": "Feature", "id": "5", "properties": { "Name": "Le Cafe Bloom", "Address": "1940 Centre St", "City": "Montreal", "Country": "Canada", "Latitude": "45.48238", "Longitude": "-73.56296" }, "geometry": { "type": "Point", "coordinates": [ -73.56296, 45.48238 ] }},
        { "type": "Feature", "id": "6", "properties": { "Name": "Cafe Pista", "Address": "500 Rue Beaubien E", "City": "Montreal", "Country": "Canada", "Latitude": "45.53492", "Longitude": "-73.60403" }, "geometry": { "type": "Point", "coordinates": [ -73.60403, 45.53492 ] }},
        { "type": "Feature", "id": "7", "properties": { "Name": "Cafe Replika", "Address": "252 Rachel St E", "City": "Montreal", "Country": "Canada", "Latitude": "45.52072", "Longitude": "-73.57931" }, "geometry": { "type": "Point", "coordinates": [ -73.57931, 45.52072 ] }},
        { "type": "Feature", "id": "8", "properties": { "Name": "Cafe DAX", "Address": "1461 Ave Van Horne", "City": "Montreal", "Country": "Canada", "Latitude": "45.51974", "Longitude": "-73.61601" }, "geometry": { "type": "Point", "coordinates": [ -73.61601, 45.51974 ] }},
        { "type": "Feature", "id": "9", "properties": { "Name": "Cafe Santropol", "Address": "3990 Rue Saint-Urbain", "City": "Montreal", "Country": "Canada", "Latitude": "45.51568", "Longitude": "-73.58052" }, "geometry": { "type": "Point", "coordinates": [ -73.58052, 45.51568 ] }},
        { "type": "Feature", "id": "10", "properties": { "Name": "Moustache Cafe", "Address": "35 Rue Beaubien", "City": "Montreal", "Country": "Canada", "Latitude": "45.53100", "Longitude": "-73.60824" }, "geometry": { "type": "Point", "coordinates": [ -73.60824, 45.53100 ] }},
        { "type": "Feature", "id": "11", "properties": { "Name": "La Brume Dans Mes Lunettes", "Address": "378 Rue Saint-Zotique", "City": "Montreal", "Country": "Canada", "Latitude": "45.53547", "Longitude": "-73.60854" }, "geometry": { "type": "Point", "coordinates": [ -73.60854, 45.53547 ] }},
        { "type": "Feature", "id": "12", "properties": { "Name": "Cafe les oubliettes", "Address": "6201 Rue de Saint-Vallier", "City": "Montreal", "Country": "Canada", "Latitude": "45.53379", "Longitude": "-73.60125" }, "geometry": { "type": "Point", "coordinates": [ -73.60125, 45.53379 ] }},
        { "type": "Feature", "id": "13", "properties": { "Name": "Carmen & Felipe", "Address": "807 Laurier Ave E", "City": "Montreal", "Country": "Canada", "Latitude": "45.52943", "Longitude": "-73.58775" }, "geometry": { "type": "Point", "coordinates": [ -73.58775, 45.52943 ] }},
        { "type": "Feature", "id": "14", "properties": { "Name": "Noble Cafe", "Address": "430 Laurier Ave E", "City": "Montreal", "Country": "Canada", "Latitude": "45.52738", "Longitude": "-73.58901" }, "geometry": { "type": "Point", "coordinates": [ -73.58901, 45.52738 ] }},
        { "type": "Feature", "id": "15", "properties": { "Name": "Le Moineau Masque", "Address": "912 Marie-Anne St E", "City": "Montreal", "Country": "Canada", "Latitude": "45.52564", "Longitude": "-73.57806" }, "geometry": { "type": "Point", "coordinates": [ -73.57806, 45.52564 ] }},
        { "type": "Feature", "id": "16", "properties": { "Name": "Cafe Kujira", "Address": "4250 Rue Augustin Frigon", "City": "Montreal", "Country": "Canada", "Latitude": "45.54347", "Longitude": "-73.56760" }, "geometry": { "type": "Point", "coordinates": [ -73.56760, 45.54347 ] }},
        { "type": "Feature", "id": "17", "properties": { "Name": "OSMO X MARUSAN", "Address": "51 Sherbrooke St W", "City": "Montreal", "Country": "Canada", "Latitude": "45.51218", "Longitude": "-73.56989" }, "geometry": { "type": "Point", "coordinates": [ -73.56989, 45.51218 ] }},
        { "type": "Feature", "id": "18", "properties": { "Name": "Tommy Cafe", "Address": "200 Notre-Dame St W", "City": "Montreal", "Country": "Canada", "Latitude": "45.50400", "Longitude": "-73.55742" }, "geometry": { "type": "Point", "coordinates": [ -73.55742, 45.50400 ] }},
        { "type": "Feature", "id": "19", "properties": { "Name": "49th Parallel Cafe", "Address": "488 McGill St", "City": "Montreal", "Country": "Canada", "Latitude": "45.50099", "Longitude": "-73.55949" }, "geometry": { "type": "Point", "coordinates": [ -73.55949, 45.50099 ] }},
        { "type": "Feature", "id": "20", "properties": { "Name": "Cafe Lali", "Address": "1850 Notre-Dame St W", "City": "Montreal", "Country": "Canada", "Latitude": "45.48792", "Longitude": "-73.56889" }, "geometry": { "type": "Point", "coordinates": [ -73.56889, 45.48792 ] }},
        { "type": "Feature", "id": "21", "properties": { "Name": "Le Depanneur Cafe", "Address": "206 Rue Bernanrd O", "City": "Montreal", "Country": "Canada", "Latitude": "45.52495", "Longitude": "-73.60439" }, "geometry": { "type": "Point", "coordinates": [ -73.60439, 45.52495 ] }},
        { "type": "Feature", "id": "22", "properties": { "Name": "Cafe Club Social", "Address": "180 Rue Saint-Viateur O", "City": "Montreal", "Country": "Canada", "Latitude": "45.52372", "Longitude": "-73.60075" }, "geometry": { "type": "Point", "coordinates": [ -73.60075, 45.52372 ] }},
        { "type": "Feature", "id": "23", "properties": { "Name": "Cafe Orr", "Address": "5368 Av. Papineau", "City": "Montreal", "Country": "Canada", "Latitude": "45.53761", "Longitude": "-73.58471" }, "geometry": { "type": "Point", "coordinates": [ -73.58471, 45.53761 ] }},
        { "type": "Feature", "id": "24", "properties": { "Name": "Lapin Presse", "Address": "1309 Laurier Ave E", "City": "Montreal", "Country": "Canada", "Latitude": "45.53333", "Longitude": "-73.58411" }, "geometry": { "type": "Point", "coordinates": [ -73.58411, 45.53333 ] }},
        { "type": "Feature", "id": "25", "properties": { "Name": "Le Grand Cormoran", "Address": "1034 Mont-Royal Ave E", "City": "Montreal", "Country": "Canada", "Latitude": "45.52776", "Longitude": "-73.57928" }, "geometry": { "type": "Point", "coordinates": [ -73.57928, 45.52776 ] }},
        { "type": "Feature", "id": "26", "properties": { "Name": "Le Picnic VeloCafe", "Address": "1251 Rue Rachel E", "City": "Montreal", "Country": "Canada", "Latitude": "45.52726", "Longitude": "-73.57302" }, "geometry": { "type": "Point", "coordinates": [ -73.57302, 45.52726 ] }},
        { "type": "Feature", "id": "26", "properties": { "Name": "Alphabet Cafe", "Address": "5765 Clark St", "City": "Montreal", "Country": "Canada", "Latitude": "45.52695", "Longitude": "-73.60243" }, "geometry": { "type": "Point", "coordinates": [ -73.60243, 45.52695 ] }}
    ]
}